[
  {
    "name": "AIIMS Delhi",
    "city": "Delhi",
    "state": "Delhi",
    "pincode": "110029",
    "address": "Sri Aurobindo Marg, Ansari Nagar, New Delhi",
    "phone": "011-26588500",
    "type": "Government",
    "emergency": true,
    "lat": 28.5672,
    "lng": 77.21
  },
  {
    "name": "Safdarjung Hospital",
    "city": "Delhi",
    "state": "Delhi",
    "pincode": "110029",
    "address": "Ansari Nagar West, New Delhi",
    "phone": "011-26730000",
    "type": "Government",
    "emergency": true,
    "lat": 28.5687,
    "lng": 77.2065
  },
  {
    "name": "KEM Hospital",
    "city": "Mumbai",
    "state": "Maharashtra",
    "pincode": "400012",
    "address": "Acharya Donde Marg, Parel, Mumbai",
    "phone": "022-24107000",
    "type": "Government",
    "emergency": true,
    "lat": 19.0012,
    "lng": 72.8424
  },
  {
    "name": "Nair Hospital",
    "city": "Mumbai",
    "state": "Maharashtra",
    "pincode": "400008",
    "address": "Dr. A.L. Nair Road, Mumbai Central",
    "phone": "022-23027600",
    "type": "Government",
    "emergency": true,
    "lat": 18.9712,
    "lng": 72.8193
  },
  {
    "name": "Rajiv Gandhi Government General Hospital",
    "city": "Chennai",
    "state": "Tamil Nadu",
    "pincode": "600003",
    "address": "Park Town, Chennai",
    "phone": "044-25305000",
    "type": "Government",
    "emergency": true,
    "lat": 13.082,
    "lng": 80.2705
  },
  {
    "name": "Victoria Hospital",
    "city": "Bangalore",
    "state": "Karnataka",
    "pincode": "560002",
    "address": "Fort Road, Krishnarajendra Market, Bangalore",
    "phone": "080-26701150",
    "type": "Government",
    "emergency": true,
    "lat": 12.9668,
    "lng": 77.5773
  },
  {
    "name": "Bowring & Lady Curzon Hospital",
    "city": "Bangalore",
    "state": "Karnataka",
    "pincode": "560001",
    "address": "Shivaji Nagar, Bangalore",
    "phone": "080-25561010",
    "type": "Government",
    "emergency": true,
    "lat": 12.9826,
    "lng": 77.6088
  },
  {
    "name": "Osmania General Hospital",
    "city": "Hyderabad",
    "state": "Telangana",
    "pincode": "500012",
    "address": "Afzalgunj, Hyderabad",
    "phone": "040-24600177",
    "type": "Government",
    "emergency": true,
    "lat": 17.3783,
    "lng": 78.4733
  },
  {
    "name": "SNMC & Hospital",
    "city": "Agra",
    "state": "Uttar Pradesh",
    "pincode": "282002",
    "address": "Fatehabad Road, Agra",
    "phone": "0562-2411600",
    "type": "Government",
    "emergency": true,
    "lat": 27.1767,
    "lng": 78.0081
  },
  {
    "name": "Motilal Nehru Medical College Hospital",
    "city": "Prayagraj",
    "state": "Uttar Pradesh",
    "pincode": "211001",
    "address": "Lowther Road, George Town, Prayagraj",
    "phone": "0532-2256753",
    "type": "Government",
    "emergency": true,
    "lat": 25.4505,
    "lng": 81.8434
  },
  {
    "name": "SRN Hospital",
    "city": "Prayagraj",
    "state": "Uttar Pradesh",
    "pincode": "211001",
    "address": "Stanley Road, Prayagraj",
    "phone": "0532-2407337",
    "type": "Government",
    "emergency": true,
    "lat": 25.4358,
    "lng": 81.8463
  },
  {
    "name": "KGMU",
    "city": "Lucknow",
    "state": "Uttar Pradesh",
    "pincode": "226003",
    "address": "Shah Mina Road, Chowk, Lucknow",
    "phone": "0522-2257540",
    "type": "Government",
    "emergency": true,
    "lat": 26.8718,
    "lng": 80.9324
  },
  {
    "name": "Balrampur Hospital",
    "city": "Lucknow",
    "state": "Uttar Pradesh",
    "pincode": "226001",
    "address": "Golaganj, Lucknow",
    "phone": "0522-2208340",
    "type": "Government",
    "emergency": true,
    "lat": 26.852,
    "lng": 80.9159
  },
  {
    "name": "PGIMER",
    "city": "Chandigarh",
    "state": "Chandigarh",
    "pincode": "160012",
    "address": "Sector 12, Chandigarh",
    "phone": "0172-2756565",
    "type": "Government",
    "emergency": true,
    "lat": 30.7643,
    "lng": 76.7763
  },
  {
    "name": "Civil Hospital Ahmedabad",
    "city": "Ahmedabad",
    "state": "Gujarat",
    "pincode": "380016",
    "address": "Asarwa, Ahmedabad",
    "phone": "079-22683721",
    "type": "Government",
    "emergency": true,
    "lat": 23.0505,
    "lng": 72.6129
  },
  {
    "name": "AIIMS Bhopal",
    "city": "Bhopal",
    "state": "Madhya Pradesh",
    "pincode": "462020",
    "address": "Saket Nagar, Bhopal",
    "phone": "0755-2672335",
    "type": "Government",
    "emergency": true,
    "lat": 23.1897,
    "lng": 77.434
  },
  {
    "name": "Hamidia Hospital",
    "city": "Bhopal",
    "state": "Madhya Pradesh",
    "pincode": "462001",
    "address": "Royal Market, Bhopal",
    "phone": "0755-2540222",
    "type": "Government",
    "emergency": true,
    "lat": 23.2626,
    "lng": 77.4127
  },
  {
    "name": "AIIMS Patna",
    "city": "Patna",
    "state": "Bihar",
    "pincode": "801507",
    "address": "Phulwari Sharif, Patna",
    "phone": "0612-2451070",
    "type": "Government",
    "emergency": true,
    "lat": 25.5477,
    "lng": 85.0638
  },
  {
    "name": "PMCH Patna",
    "city": "Patna",
    "state": "Bihar",
    "pincode": "800004",
    "address": "Ashok Rajpath, Patna",
    "phone": "0612-2300084",
    "type": "Government",
    "emergency": true,
    "lat": 25.6136,
    "lng": 85.1404
  },
  {
    "name": "SCB Medical College Hospital",
    "city": "Cuttack",
    "state": "Odisha",
    "pincode": "753007",
    "address": "Mangalabag, Cuttack",
    "phone": "0671-2414580",
    "type": "Government",
    "emergency": true,
    "lat": 20.4625,
    "lng": 85.8803
  },
  {
    "name": "AIIMS Rishikesh",
    "city": "Rishikesh",
    "state": "Uttarakhand",
    "pincode": "249203",
    "address": "Virbhadra Road, Rishikesh",
    "phone": "0135-2462900",
    "type": "Government",
    "emergency": true,
    "lat": 30.1213,
    "lng": 78.3135
  },
  {
    "name": "Government Medical College Srinagar",
    "city": "Srinagar",
    "state": "Jammu & Kashmir",
    "pincode": "190010",
    "address": "Karan Nagar, Srinagar",
    "phone": "0194-2452400",
    "type": "Government",
    "emergency": true,
    "lat": 34.0837,
    "lng": 74.7973
  },
  {
    "name": "Gauhati Medical College & Hospital",
    "city": "Guwahati",
    "state": "Assam",
    "pincode": "781032",
    "address": "Bhangagarh, Guwahati",
    "phone": "0361-2529457",
    "type": "Government",
    "emergency": true,
    "lat": 26.1751,
    "lng": 91.7514
  },
  {
    "name": "Kozhikode Government Medical College",
    "city": "Kozhikode",
    "state": "Kerala",
    "pincode": "673008",
    "address": "Medical College Road, Kozhikode",
    "phone": "0495-2350216",
    "type": "Government",
    "emergency": true,
    "lat": 11.2704,
    "lng": 75.7876
  },
  {
    "name": "Thiruvananthapuram Medical College",
    "city": "Thiruvananthapuram",
    "state": "Kerala",
    "pincode": "695011",
    "address": "Medical College Road, Thiruvananthapuram",
    "phone": "0471-2528386",
    "type": "Government",
    "emergency": true,
    "lat": 8.5222,
    "lng": 76.9375
  }
]
